{
    "courtData": [
        {
        "name": "Northwestern High",
        "address": "Adelphi Road",
        "city": "washington",
        "state": "dc",
        "zip_code": 20782,
        "type": "Public",
        "count": 6,
        "clay": false,
        "wall": true,
        "grass": false,
        "indoor": false,
        "lights": false,
        "proshop": false,
        "latitude": 38.9743509,
        "longitude": -76.952112
        },
        {
        "name": "The Park at Canterbury",
        "address": "Brandywood Circle",
        "city": "orlando",
        "state": "fl",
        "zip_code": 32792,
        "type": "Homeowners Community",
        "count": 1,
        "clay": false,
        "wall": false,
        "grass": false,
        "indoor": false,
        "lights": true,
        "proshop": false,
        "latitude": 28.5909561,
        "longitude": -81.285224
        },
        {
        "name": "Tippit Middle School",
        "address": "Greenlee Drive",
        "city": "austin-san marcos",
        "state": "tx",
        "zip_code": 78628,
        "type": "Public",
        "count": 8,
        "clay": false,
        "wall": true,
        "grass": false,
        "indoor": false,
        "lights": true,
        "proshop": false,
        "latitude": 30.615173,
        "longitude": -97.7007937
        },
        {
        "name": "Lexington Park",
        "address": "McKee Street",
        "city": "minneapolis-st. paul",
        "state": "mn",
        "zip_code": 55121,
        "type": "Public",
        "count": 1,
        "clay": false,
        "wall": false,
        "grass": false,
        "indoor": false,
        "lights": false,
        "proshop": false,
        "latitude": 44.8520963,
        "longitude": -93.1421
        },
        {
        "name": "Rogers Junior School",
        "address": "Avenue North",
        "city": "minneapolis-st. paul",
        "state": "mn",
        "zip_code": 55374,
        "type": "Public",
        "count": 6,
        "clay": false,
        "wall": false,
        "grass": false,
        "indoor": false,
        "lights": false,
        "proshop": false,
        "latitude": 45.207841,
        "longitude": -93.544174
        },
        {
        "name": "Melrose Park",
        "address": "Talway Circle",
        "city": "west palm beach - boca raton",
        "state": "fl",
        "zip_code": 33472,
        "type": "Homeowners Community",
        "count": 2,
        "clay": false,
        "wall": false,
        "grass": false,
        "indoor": false,
        "lights": false,
        "proshop": false,
        "latitude": 26.5534934,
        "longitude": -80.2005816
        },
        {
        "name": "Staples High School Athletic Complex",
        "address": "North Avenue",
        "city": "new york",
        "state": "ny",
        "zip_code": "06880",
        "type": "Public",
        "count": 6,
        "clay": false,
        "wall": false,
        "grass": false,
        "indoor": false,
        "lights": false,
        "proshop": false,
        "latitude": 41.154117,
        "longitude": -73.330671
        },
        {
        "name": "California Park",
        "address": "North California Avenue",
        "city": "chicago",
        "state": "il",
        "zip_code": 60618,
        "type": "Public",
        "count": 4,
        "clay": false,
        "wall": true,
        "grass": false,
        "indoor": false,
        "lights": true,
        "proshop": false,
        "latitude": 41.9501589,
        "longitude": -87.697404
        },
        {
        "name": "Cherry Grove East",
        "address": "East Drive",
        "city": "denver",
        "state": "co",
        "zip_code": 80011,
        "type": "Homeowners Community",
        "count": 2,
        "clay": false,
        "wall": false,
        "grass": false,
        "indoor": false,
        "lights": true,
        "proshop": false,
        "latitude": 39.7179324,
        "longitude": -104.8220158
        },
        {
        "name": "Juneau Playfield",
        "address": "North Street",
        "city": "milwaukee",
        "state": "wi",
        "zip_code": 53213,
        "type": "Public",
        "count": 6,
        "clay": false,
        "wall": false,
        "grass": false,
        "indoor": false,
        "lights": false,
        "proshop": false,
        "latitude": 43.0352388,
        "longitude": -87.99405
        }
    ]
}