{
    "courtData": [
        {
            "name": "Northwestern High",
            "address": "Adelphi Road",
            "city": "washington",
            "state": "dc",
            "zip_code": 20782,
            "type": "Public",
            "count": 6,
            "clay": false,
            "wall": true,
            "grass": false,
            "indoor": false,
            "lights": false,
            "proshop": false,
            "latitude": 38.9743509,
            "longitude": -76.952112
        },
        {
            "name": "The Park at Canterbury",
            "address": "Brandywood Circle",
            "city": "orlando",
            "state": "fl",
            "zip_code": 32792,
            "type": "Homeowners Community",
            "count": 1,
            "clay": false,
            "wall": false,
            "grass": false,
            "indoor": false,
            "lights": true,
            "proshop": false,
            "latitude": 28.5909561,
            "longitude": -81.285224
        },
        {
            "name": "Tippit Middle School",
            "address": "Greenlee Drive",
            "city": "austin-san marcos",
            "state": "tx",
            "zip_code": 78628,
            "type": "Public",
            "count": 8,
            "clay": false,
            "wall": true,
            "grass": false,
            "indoor": false,
            "lights": true,
            "proshop": false,
            "latitude": 30.615173,
            "longitude": -97.7007937
        },
        {
            "name": "Lexington Park",
            "address": "McKee Street",
            "city": "minneapolis-st. paul",
            "state": "mn",
            "zip_code": 55121,
            "type": "Public",
            "count": 1,
            "clay": false,
            "wall": false,
            "grass": false,
            "indoor": false,
            "lights": false,
            "proshop": false,
            "latitude": 44.8520963,
            "longitude": -93.1421
        },
        {
            "name": "Rogers Junior School",
            "address": "Avenue North",
            "city": "minneapolis-st. paul",
            "state": "mn",
            "zip_code": 55374,
            "type": "Public",
            "count": 6,
            "clay": false,
            "wall": false,
            "grass": false,
            "indoor": false,
            "lights": false,
            "proshop": false,
            "latitude": 45.207841,
            "longitude": -93.544174
        },
        {
            "name": "Melrose Park",
            "address": "Talway Circle",
            "city": "west palm beach - boca raton",
            "state": "fl",
            "zip_code": 33472,
            "type": "Homeowners Community",
            "count": 2,
            "clay": false,
            "wall": false,
            "grass": false,
            "indoor": false,
            "lights": false,
            "proshop": false,
            "latitude": 26.5534934,
            "longitude": -80.2005816
        },
        {
            "name": "Staples High School Athletic Complex",
            "address": "North Avenue",
            "city": "new york",
            "state": "ny",
            "zip_code": "06880",
            "type": "Public",
            "count": 6,
            "clay": false,
            "wall": false,
            "grass": false,
            "indoor": false,
            "lights": false,
            "proshop": false,
            "latitude": 41.154117,
            "longitude": -73.330671
        },
        {
            "name": "California Park",
            "address": "North California Avenue",
            "city": "chicago",
            "state": "il",
            "zip_code": 60618,
            "type": "Public",
            "count": 4,
            "clay": false,
            "wall": true,
            "grass": false,
            "indoor": false,
            "lights": true,
            "proshop": false,
            "latitude": 41.9501589,
            "longitude": -87.697404
        },
        {
            "name": "Cherry Grove East",
            "address": "East Drive",
            "city": "denver",
            "state": "co",
            "zip_code": 80011,
            "type": "Homeowners Community",
            "count": 2,
            "clay": false,
            "wall": false,
            "grass": false,
            "indoor": false,
            "lights": true,
            "proshop": false,
            "latitude": 39.7179324,
            "longitude": -104.8220158
        },
        {
            "name": "Juneau Playfield",
            "address": "North Street",
            "city": "milwaukee",
            "state": "wi",
            "zip_code": 53213,
            "type": "Public",
            "count": 6,
            "clay": false,
            "wall": false,
            "grass": false,
            "indoor": false,
            "lights": false,
            "proshop": false,
            "latitude": 43.0352388,
            "longitude": -87.99405
        },
        {
            "name": "Glenleigh",
            "address": "Glenleigh Drive Southwest",
            "city": "atlanta",
            "state": "ga",
            "zip_code": 30126,
            "type": "Homeowners Community",
            "count": 2,
            "clay": false,
            "wall": false,
            "grass": false,
            "indoor": false,
            "lights": true,
            "proshop": false,
            "latitude": 33.8419403,
            "longitude": -84.5557165
          },
          {
            "name": "Washington Square Park",
            "address": "Saddlewood Drive",
            "city": "detroit",
            "state": "mi",
            "zip_code": 48313,
            "type": "Public",
            "count": 2,
            "clay": false,
            "wall": false,
            "grass": false,
            "indoor": false,
            "lights": false,
            "proshop": false,
            "latitude": 42.5900257,
            "longitude": -82.9785883
          },
          {
            "name": "Timber Trace",
            "address": "Gladeview Parkway",
            "city": "atlanta",
            "state": "ga",
            "zip_code": 30083,
            "type": "Homeowners Community",
            "count": 2,
            "clay": false,
            "wall": false,
            "grass": false,
            "indoor": false,
            "lights": true,
            "proshop": false,
            "latitude": 33.8254799,
            "longitude": -84.1795313
          },
          {
            "name": "Stonehenge Condominiums",
            "address": "Haggerty Road",
            "city": "detroit",
            "state": "mi",
            "zip_code": 48375,
            "type": "Homeowners Community",
            "count": 1,
            "clay": false,
            "wall": false,
            "grass": false,
            "indoor": false,
            "lights": false,
            "proshop": false,
            "latitude": 42.4628452,
            "longitude": -83.4361517
          },
          {
            "name": "Marblehead Veterans Middle School",
            "address": "Vine Street",
            "city": "boston",
            "state": "ma",
            "zip_code": "01945",
            "type": "Public",
            "count": 3,
            "clay": false,
            "wall": false,
            "grass": false,
            "indoor": false,
            "lights": false,
            "proshop": false,
            "latitude": 42.4990055,
            "longitude": -70.8613336
          },
          {
            "name": "Abington Grove Apartments",
            "address": "Chestnut Street",
            "city": "boston",
            "state": "ma",
            "zip_code": "02351",
            "type": "Homeowners Community",
            "count": 2,
            "clay": false,
            "wall": false,
            "grass": false,
            "indoor": false,
            "lights": false,
            "proshop": false,
            "latitude": 42.1234212,
            "longitude": -71.0007548
          },
          {
            "name": "Chase Elementary School",
            "address": "Eastern Avenue",
            "city": "baltimore",
            "state": "md",
            "zip_code": 21220,
            "type": "Public",
            "count": 1,
            "clay": false,
            "wall": false,
            "grass": false,
            "indoor": false,
            "lights": false,
            "proshop": false,
            "latitude": 39.3430184,
            "longitude": -76.3923383
          },
          {
            "name": "University of Memphis",
            "address": "Houston Street",
            "city": "memphis",
            "state": "tn",
            "zip_code": 38111,
            "type": "Public",
            "count": 16,
            "clay": false,
            "wall": false,
            "grass": false,
            "indoor": false,
            "lights": true,
            "proshop": false,
            "latitude": 35.1138005,
            "longitude": -89.9391782
          },
          {
            "name": "Montgomery Hills",
            "address": "Marten Road",
            "city": "new york",
            "state": "ny",
            "zip_code": "08540",
            "type": "Homeowners Community",
            "count": 1,
            "clay": false,
            "wall": false,
            "grass": false,
            "indoor": false,
            "lights": false,
            "proshop": false,
            "latitude": 40.3922866,
            "longitude": -74.6454155
          },
          {
            "name": "Knoxwoods",
            "address": "Knox Boulevard",
            "city": "albany",
            "state": "ny",
            "zip_code": 12065,
            "type": "Homeowners Community",
            "count": 3,
            "clay": false,
            "wall": false,
            "grass": false,
            "indoor": false,
            "lights": false,
            "proshop": false,
            "latitude": 42.8435389,
            "longitude": -73.7307501
          },
          {
            "name": "Mountain View Terrace Apartments",
            "address": "Pollock Road",
            "city": "albany",
            "state": "ny",
            "zip_code": 12110,
            "type": "Homeowners Community",
            "count": 1,
            "clay": false,
            "wall": false,
            "grass": false,
            "indoor": false,
            "lights": false,
            "proshop": false,
            "latitude": 42.7713214,
            "longitude": -73.7757254
          },
          {
            "name": "Valley Brook Community",
            "address": "Valley Brook Drive South",
            "city": "dayton-springfield",
            "state": "oh",
            "zip_code": 45322,
            "type": "Homeowners Community",
            "count": 3,
            "clay": false,
            "wall": false,
            "grass": false,
            "indoor": false,
            "lights": true,
            "proshop": false,
            "latitude": 39.8424013,
            "longitude": -84.3084919
          },
          {
            "name": "Watersedge",
            "address": "Wateredge Drive",
            "city": "oklahoma city",
            "state": "ok",
            "zip_code": 73108,
            "type": "Homeowners Community",
            "count": 2,
            "clay": false,
            "wall": false,
            "grass": false,
            "indoor": false,
            "lights": false,
            "proshop": false,
            "latitude": 35.4435314,
            "longitude": -97.5941491
          },
          {
            "name": "Hartford Park",
            "address": "Hartford Park Walking Trail",
            "city": "st. louis",
            "state": "mo",
            "zip_code": 62048,
            "type": "Public",
            "count": 2,
            "clay": false,
            "wall": true,
            "grass": false,
            "indoor": false,
            "lights": true,
            "proshop": false,
            "latitude": 38.8266198,
            "longitude": -90.0914311
          },
          {
            "name": "University of California - Berkeley Hellman Tennis Stadium",
            "address": "Frank Schlessinger Way",
            "city": "san francisco - oakland - san jose",
            "state": "ca",
            "zip_code": 94704,
            "type": "Public",
            "count": 6,
            "clay": false,
            "wall": false,
            "grass": false,
            "indoor": false,
            "lights": true,
            "proshop": false,
            "latitude": 37.8699667,
            "longitude": -122.2650218
          },
          {
            "name": "Sequoia High School",
            "address": "James Avenue",
            "city": "san francisco - oakland - san jose",
            "state": "ca",
            "zip_code": 94062,
            "type": "Public",
            "count": 4,
            "clay": false,
            "wall": false,
            "grass": false,
            "indoor": false,
            "lights": false,
            "proshop": false,
            "latitude": 37.4834403,
            "longitude": -122.2371697
          },
          {
            "name": "Central Park Condominiums",
            "address": "East Shaw Avenue",
            "city": "fresno",
            "state": "ca",
            "zip_code": 93710,
            "type": "Homeowners Community",
            "count": 2,
            "clay": false,
            "wall": false,
            "grass": false,
            "indoor": false,
            "lights": true,
            "proshop": false,
            "latitude": 36.8112775,
            "longitude": -119.7664797
          },
          {
            "name": "H. Grady Spruce High School",
            "address": "Old Seagoville Road",
            "city": "dallas - fort worth",
            "state": "tx",
            "zip_code": 75217,
            "type": "Public",
            "count": 2,
            "clay": false,
            "wall": false,
            "grass": false,
            "indoor": false,
            "lights": false,
            "proshop": false,
            "latitude": 32.709345,
            "longitude": -96.6518462
          },
          {
            "name": "Friendswood Lakes",
            "address": "Mossy Stone Drive",
            "city": "houston - galveston - brazoria",
            "state": "tx",
            "zip_code": 77546,
            "type": "Homeowners Community",
            "count": 2,
            "clay": false,
            "wall": false,
            "grass": false,
            "indoor": false,
            "lights": true,
            "proshop": false,
            "latitude": 29.491011,
            "longitude": -95.2020264
          },
          {
            "name": "Clearbrook",
            "address": "Clearbrook Circle East",
            "city": "west palm beach - boca raton",
            "state": "fl",
            "zip_code": 33445,
            "type": "Homeowners Community",
            "count": 1,
            "clay": false,
            "wall": false,
            "grass": false,
            "indoor": false,
            "lights": true,
            "proshop": false,
            "latitude": 26.4520645,
            "longitude": -80.1019835
          },
          {
            "name": "Lexington Park at Westchase",
            "address": "Sundown View Court",
            "city": "tampa-st. petersburg-clearwater",
            "state": "fl",
            "zip_code": 33626,
            "type": "Homeowners Community",
            "count": 1,
            "clay": false,
            "wall": false,
            "grass": false,
            "indoor": false,
            "lights": true,
            "proshop": false,
            "latitude": 28.0582338,
            "longitude": -82.6248372
          }
    ]
}